[
    {
        "ID":"1",
        "name":"zozo atlah",
        "type":"woman",
        "location":"Alaharm",
        "img":"img/atlah/ad5406805f2fe2cbbffc32d8d0825af3.jpg",
        "link":"/atlah3.html",
      "inst":"#",
      "phone":"00000"
    },
    {
        "ID":"2",
        "name":"momo atlah",
        "type":"woman",
        "location":"Doky",
        "img":"img/atlah/9311ba46d5d0fa58c7fc08556de42748.jpg",
        "link":"/atlah1.html",
      "inst":"#",
      "phone":"00000"
    },
    {
        "ID":"3",
        "type":"woman",
        "name":"soso atlah",
        "location":"Almady",
        "img":"img/atlah/9311ba46d5d0fa58c7fc08556de42748.jpg",
      "inst":"#",
      "phone":"00000"
    },
    {
        "ID":"4",
        "type":"woman",
        "name":"bobo atlah",
        "location":"Alaharm",
        "img":"img/atlah/9311ba46d5d0fa58c7fc08556de42748.jpg",
        "link":"/atlah4.html",
      "inst":"#",
      "phone":"00000"
    },
    {
        "ID":"4",
        "type":"woman",
        "name":"bobo atlah",
        "location":"Helwan",
        "img":"img/atlah/ad5406805f2fe2cbbffc32d8d0825af3.jpg",
        "link":"/atlah4.html",
      "inst":"#",
      "phone":"00000"
    },
    {
        "ID":"4",
        "type":"woman",
        "name":"bobo atlah",
        "location":"Alaharm",
        "img":"img/atlah/9311ba46d5d0fa58c7fc08556de42748.jpg",
        "link":"/atlah4.html",
      "inst":"#",
      "phone":"00000"
    },
    {
        "ID":"4",
        "type":"woman",
        "name":"bobo atlah",
        "location":"Alaharm",
        "img":"img/atlah/9311ba46d5d0fa58c7fc08556de42748.jpg",
        "link":"/atlah4.html",
      "inst":"#",
      "phone":"00000"
    },
    {
        "ID":"4",
        "type":"woman",
        "name":"lolo atlah",
        "location":"Alzmalik",
        "img":"img/atlah/9311ba46d5d0fa58c7fc08556de42748.jpg",
        "link":"/atlah2.html",
      "inst":"#",
      "phone":"00000"
    },
    {
        "ID":"4",
        "type":"woman",
        "name":"bobo atlah",
        "location":"Alaharm",
        "img":"img/atlah/ad5406805f2fe2cbbffc32d8d0825af3.jpg",
        "link":"/atlah4.html",
      "inst":"#",
      "phone":"00000"
    },
    {
        "ID":"4",
        "type":"woman",
        "name":"lolo atlah",
        "location":"Almady",
        "img":"img/atlah/ad5406805f2fe2cbbffc32d8d0825af3.jpg",
        "link":"/atlah2.html",
      "inst":"#",
      "phone":"00000"
    },
    {
        "ID":"4",
        "type":"woman",
        "name":"lolo atlah",
        "location":"Alaharm",
        "img":"img/atlah/9311ba46d5d0fa58c7fc08556de42748.jpg",
        "link":"/atlah2.html",
      "inst":"#",
      "phone":"00000"


    },
    {
        "ID":"4",
        "type":"woman",
        "name":"bobo atlah",
        "location":"Doky",
        "img":"img/atlah/63e8d35dd75457851ced9a3c574969db.jpg",
        "link":"/atlah4.html",
      "inst":"#",
      "phone":"00000"
    },
    {
        "ID":"4",
        "type":"woman",
        "name":"momo atlah",
        "location":"Alaharm",
        "img":"img/atlah/63e8d35dd75457851ced9a3c574969db.jpg",
        "link":"/atlah1.html",
      "inst":"#",
      "phone":"00000"
    },
    {
        "ID":"4",
        "type":"woman",
        "name":"zozo atlah",
        "location":"Almady",
        "img":"img/atlah/63e8d35dd75457851ced9a3c574969db.jpg",
        "link":"/atlah3.html",
      "inst":"#",
      "phone":"00000"
    },
    {
        "ID":"4",
        "type":"woman",
        "name":"bobo atlah",
        "location":"Alaharm",
        "img":"img/atlah/ad5406805f2fe2cbbffc32d8d0825af3.jpg",
        "link":"/atlah4.html",
      "inst":"#",
      "phone":"00000"
    },
    {
        "ID":"4",
        "type":"woman",
        "name":"momo atlah",
        "location":"Giza",
        "img":"img/atlah/63e8d35dd75457851ced9a3c574969db.jpg",
        "link":"/atlah1.html",
      "inst":"#",
      "phone":"00000"
    },
    {
        "ID":"4",
        "type":"woman",
        "name":"bobo atlah",
        "location":"Helwan",
        "img":"img/atlah/9311ba46d5d0fa58c7fc08556de42748.jpg",
        "link":"/atlah4.html",
      "inst":"#",
      "phone":"00000"
    },
    {
        "ID":"4",
        "type":"woman",
        "name":"bobo atlah",
        "location":"Helwan",
        "img":"img/atlah/9311ba46d5d0fa58c7fc08556de42748.jpg",
        "link":"/atlah4.html",
      "inst":"#",
      "phone":"00000"
    },
    {
        "ID":"4",
        
        "type":"woman",
        "name":"zozo atlah",
        "location":"Helwan",
        "img":"img/atlah/9311ba46d5d0fa58c7fc08556de42748.jpg",
        "link":"/atlah3.html",
      "inst":"#",
      "phone":"00000"

    },






    {
        "ID":"5",
        "type":"man",
        "name":"soso atlah",
        "location":"Alaharm",
     "img":"img/atlah/images (2).jpg",
     "link":"/atlah8.html",
      "inst":"#",
      "phone":"00000"
    },
    {
        "ID":"5",
        "type":"man",
        "name":"lolo atlah",
        "location":"Alaharm",
         "img":"img/atlah/images (2).jpg",
    "link":"/atlah7.html",
      "inst":"#",
      "phone":"00000"
    },
    {
        "ID":"5",
        "type":"man",
        "name":"soso atlah",
        "location":"Alaharm",
       "img":"img/atlah/images (2).jpg",
     "link":"/atlah8.html",
      "inst":"#",
      "phone":"00000"
    },
    {
        "ID":"5",
        "type":"man",
        "name":"lolo atlah",
        "location":"Alaharm",
        "img":"img/atlah/images (2).jpg",
    "link":"/atlah7.html",
      "inst":"#",
      "phone":"00000"
    },
    {
        "ID":"5",
        "type":"man",
        "name":"lolo atlah",
        "location":"Alaharm",
       "img":"img/atlah/images (2).jpg",
    "link":"/atlah7.html",
      "inst":"#",
      "phone":"00000"
    },
    {
        "ID":"5",
        "type":"man",
        "name":"lolo atlah",
        "location":"Alaharm",
        "img":"img/atlah/images (2).jpg",
    "link":"/atlah7.html",
      "inst":"#",
      "phone":"00000"
    },
    {
        "ID":"5",
        "type":"man",
        "name":"lolo atlah",
        "location":"Alaharm",
    "img":"img/atlah/images (2).jpg",
    "link":"/atlah7.html",
      "inst":"#",
      "phone":"00000"
    },
    {
        "ID":"5",
        "type":"man",
        "name":"lolo atlah",
        "location":"Alaharm",
       "img":"img/atlah/images (2).jpg",
    "link":"/atlah7.html",
      "inst":"#",
      "phone":"00000"
    },
    {
        "ID":"5",
        "type":"man",
        "name":"bobo atlah",
        "location":"Alaharm",
        "img":"img/atlah/images (2).jpg",
        "link":"/atlah6.html",
      "inst":"#",
      "phone":"00000"
    },
    {
        "ID":"5",
        "type":"man",
        "name":"lolo atlah",
        "location":"Alaharm",
        "img":"img/atlah/images (2).jpg",
    "link":"/atlah7.html",
      "inst":"#",
      "phone":"00000"
    },
    {
        "ID":"5",
        "type":"man",
        "name":"soso atlah",
        "location":"Alaharm",
         "img":"img/atlah/images (2).jpg",
     "link":"/atlah8.html",
      "inst":"#",
      "phone":"00000"
    },
    {
        "ID":"5",
        "type":"man",
        "name":"bobo atlah",
        "location":"Alaharm",
         "img":"img/atlah/images (2).jpg",
         "link":"/atlah6.html",
         "inst":"#",
      "phone":"00000"
    },
    {
        "ID":"5",
        "type":"man",
        "name":"momo atlah",
        "location":"Alaharm",
        "img":"img/atlah/images (2).jpg",
        "link":"/atlah5.html",
         "inst":"#",
      "phone":"00000"
    }
]